[{"Station Name": "Bordj Badj Mokhtar", "ID": "AGM00060686", "Lat": 21.333, "Lon": 0.95, "Elevation": 399.0, "BI": 8}, {"Station Name": "Tamanrasset", "ID": "AG000060680", "Lat": 22.8, "Lon": 5.4331, "Elevation": 1362.0, "BI": 0}, {"Station Name": "Tiska", "ID": "AGM00060670", "Lat": 24.293, "Lon": 9.452, "Elevation": 968.0, "BI": 0}, {"Station Name": "Illizi Takhamalt", "ID": "AGM00060640", "Lat": 26.724, "Lon": 8.623, "Elevation": 541.9, "BI": 0}, {"Station Name": "In Salah", "ID": "AGM00060630", "Lat": 27.233, "Lon": 2.5, "Elevation": 269.0, "BI": 14}, {"Station Name": "Touat Cheikh Sidi Mohamed Bel", "ID": "AGM00060620", "Lat": 27.838, "Lon": -0.186, "Elevation": 280.1, "BI": 0}, {"Station Name": "Tindouf", "ID": "AGM00060656", "Lat": 27.7, "Lon": -8.167, "Elevation": 442.9, "BI": 0}, {"Station Name": "Timimoun", "ID": "AGM00060607", "Lat": 29.237, "Lon": 0.276, "Elevation": 313.0, "BI": 0}, {"Station Name": "Beni Abbes", "ID": "AGM00060602", "Lat": 30.133, "Lon": -2.167, "Elevation": 505.0, "BI": 10}, {"Station Name": "El Golea", "ID": "AG000060590", "Lat": 30.5667, "Lon": 2.8667, "Elevation": 397.0, "BI": 12}, {"Station Name": "Bechar", "ID": "AGM00060571", "Lat": 31.646, "Lon": -2.27, "Elevation": 811.1, "BI": 9}, {"Station Name": "Oued Irara", "ID": "AGM00060581", "Lat": 31.673, "Lon": 6.14, "Elevation": 141.1, "BI": 34}, {"Station Name": "Ouargla", "ID": "AGM00060580", "Lat": 31.917, "Lon": 5.413, "Elevation": 150.0, "BI": 14}, {"Station Name": "Noumerat", "ID": "AGM00060566", "Lat": 32.384, "Lon": 3.794, "Elevation": 460.9, "BI": 8}, {"Station Name": "Sidi Mahdi", "ID": "AGM00060555", "Lat": 33.068, "Lon": 6.089, "Elevation": 85.0, "BI": 6}, {"Station Name": "Guemar", "ID": "AGM00060559", "Lat": 33.511, "Lon": 6.777, "Elevation": 61.9, "BI": 11}, {"Station Name": "Naama", "ID": "AGM00060557", "Lat": 33.267, "Lon": -0.3, "Elevation": 1166.0, "BI": 17}, {"Station Name": "Mecheria", "ID": "AGM00060549", "Lat": 33.536, "Lon": -0.242, "Elevation": 1175.0, "BI": 16}, {"Station Name": "El Bayadh", "ID": "AGM00060550", "Lat": 33.667, "Lon": 1.0, "Elevation": 1347.0, "BI": 16}, {"Station Name": "Laghouat", "ID": "AGE00147719", "Lat": 33.7997, "Lon": 2.89, "Elevation": 767.0, "BI": 19}, {"Station Name": "El Kheiter", "ID": "AGM00060540", "Lat": 34.15, "Lon": 0.067, "Elevation": 1001.0, "BI": 0}, {"Station Name": "Djelfa Tletsi", "ID": "AGM00060535", "Lat": 34.683, "Lon": 3.25, "Elevation": 1144.0, "BI": 32}, {"Station Name": "Biskra", "ID": "AGE00147718", "Lat": 34.85, "Lon": 5.72, "Elevation": 125.0, "BI": 38}, {"Station Name": "Saida", "ID": "AGM00060536", "Lat": 34.867, "Lon": 0.15, "Elevation": 752.0, "BI": 20}, {"Station Name": "Ghriss", "ID": "AGM00060507", "Lat": 35.208, "Lon": 0.147, "Elevation": 513.9, "BI": 0}, {"Station Name": "Mostaganem", "ID": "AGM00060457", "Lat": 35.883, "Lon": 0.117, "Elevation": 138.0, "BI": 10}, {"Station Name": "Arzew", "ID": "AGM00060452", "Lat": 35.817, "Lon": -0.267, "Elevation": 4.0, "BI": 188}, {"Station Name": "Es Senia", "ID": "AGM00060490", "Lat": 35.624, "Lon": -0.621, "Elevation": 89.9, "BI": 14}, {"Station Name": "Beni Saf", "ID": "AGM00060518", "Lat": 35.3, "Lon": -1.35, "Elevation": 70.0, "BI": 10}, {"Station Name": "Zenata", "ID": "AGM00060531", "Lat": 35.017, "Lon": -1.45, "Elevation": 248.1, "BI": 7}, {"Station Name": "Maghnia", "ID": "AGM00060522", "Lat": 34.82, "Lon": -1.77, "Elevation": 426.0, "BI": 0}, {"Station Name": "Ksar Chellala", "ID": "AGM00060514", "Lat": 35.167, "Lon": 2.317, "Elevation": 801.0, "BI": 0}, {"Station Name": "Bou Chekif", "ID": "AGM00060511", "Lat": 35.341, "Lon": 1.463, "Elevation": 989.1, "BI": 0}, {"Station Name": "Ech Cheliff", "ID": "AGM00060425", "Lat": 36.213, "Lon": 1.332, "Elevation": 141.1, "BI": 10}, {"Station Name": "Miliana", "ID": "AGM00060430", "Lat": 36.3, "Lon": 2.233, "Elevation": 721.0, "BI": 11}, {"Station Name": "Medea", "ID": "AGM00060437", "Lat": 36.283, "Lon": 2.733, "Elevation": 1036.0, "BI": 21}, {"Station Name": "Ain Bessam", "ID": "AGM00060415", "Lat": 36.317, "Lon": 3.533, "Elevation": 748.0, "BI": 0}, {"Station Name": "Alger Dar El Beida", "ID": "AG000060390", "Lat": 36.7167, "Lon": 3.25, "Elevation": 24.0, "BI": 25}, {"Station Name": "Bou Saada", "ID": "AGM00060515", "Lat": 35.333, "Lon": 4.206, "Elevation": 459.0, "BI": 0}, {"Station Name": "M'Sila", "ID": "AGM00060467", "Lat": 35.667, "Lon": 4.5, "Elevation": 442.0, "BI": 9}, {"Station Name": "Bordj Bou Arreridj", "ID": "AGM00060444", "Lat": 36.067, "Lon": 4.767, "Elevation": 930.0, "BI": 29}, {"Station Name": "Setif Ain Arnat", "ID": "AGM00060445", "Lat": 36.178, "Lon": 5.324, "Elevation": 1050.0, "BI": 9}, {"Station Name": "Soummam", "ID": "AGM00060402", "Lat": 36.712, "Lon": 5.07, "Elevation": 6.1, "BI": 13}, {"Station Name": "Jijel", "ID": "AGM00060351", "Lat": 36.795, "Lon": 5.874, "Elevation": 11.0, "BI": 11}, {"Station Name": "Batna", "ID": "AGM00060468", "Lat": 35.55, "Lon": 6.183, "Elevation": 1052.0, "BI": 38}, {"Station Name": "Mohamed Boudiaf Intl", "ID": "AGM00060419", "Lat": 36.276, "Lon": 6.62, "Elevation": 690.4, "BI": 0}, {"Station Name": "Khenchella", "ID": "AGM00060476", "Lat": 35.467, "Lon": 7.083, "Elevation": 987.0, "BI": 11}, {"Station Name": "Cheikh Larbi Tebessi", "ID": "AGM00060475", "Lat": 35.432, "Lon": 8.121, "Elevation": 811.1, "BI": 25}, {"Station Name": "Oum El Bouaghi", "ID": "AGM00060421", "Lat": 35.867, "Lon": 7.117, "Elevation": 891.0, "BI": 22}, {"Station Name": "Guelma", "ID": "AGM00060403", "Lat": 36.467, "Lon": 7.467, "Elevation": 228.0, "BI": 26}, {"Station Name": "Souk Ahras", "ID": "AGM00060423", "Lat": 36.283, "Lon": 7.967, "Elevation": 680.0, "BI": 26}, {"Station Name": "Annaba", "ID": "AGM00060360", "Lat": 36.822, "Lon": 7.809, "Elevation": 4.9, "BI": 14}]